timestamp,recordtime,lat,long,alt,speed,course,verticalAccuracy,horizontalAccuracy,locTimeStamp,accelerationX,accelerationY,accelerationZ,HeadingX,HeadingY,HeadingZ,TrueHeading,MagneticHeading,HeadingAccuracy,RotationX,RotationY,RotationZ,motionYaw,motionRoll,motionPitch,motionRotationRateX,motionRotationRateY,motionRotationRateZ,motionUserAccelerationX,motionUserAccelerationY,motionUserAccelerationZ
1,0.01,40.6833,-75.28803,108.5045,21.53,271.1804,6,5,1422118166,0.01773071,0.1218109,-1.053391,24.86165,12.82698,-22.99747,281.424,293.784,25,-0.03811356,-0.03207272,-0.05777781,0.3841676,-0.01549935,-0.0720685,-0.002645021,0.0001107333,-0.003367873,0.07028332,0.01095591,0.04010055
2,0.02,40.6833,-75.28803,108.5045,21.53,271.1804,6,5,1422118166,0.01773071,0.1218109,-1.053391,24.86165,12.82698,-22.99747,281.424,293.784,25,-0.03811356,-0.03207272,-0.05777781,0.3841676,-0.01549935,-0.0720685,-0.002645021,0.0001107333,-0.003367873,0.07028332,0.01095591,0.04010055
3,0.03,40.6833,-75.28803,108.5045,21.53,271.1804,6,5,1422118166,-0.001586914,0.07524109,-1.057617,24.79088,13.39319,-23.33844,282.2432,294.6032,25,-0.01006435,-0.02523532,-0.06374489,0.3843811,-0.0131715,-0.07283611,-0.04039887,-0.01066359,0.001324711,0.07349997,0.02020008,-0.05832566
4,0.04,40.6833,-75.28803,108.5045,21.53,271.1804,6,5,1422118166,-0.02879333,0.0231781,-1.03006,24.79088,13.39319,-23.33844,282.2432,294.6032,25,0.03290122,-0.03893062,-0.04851108,0.3843811,-0.0131715,-0.07283611,-0.04039887,-0.01066359,0.001324711,0.07349997,0.02020008,-0.05832566
5,0.05,40.6833,-75.28828,108.6083,21.53,271.1804,6,10,1422118166,-0.02879333,0.0231781,-1.03006,24.79088,13.39319,-23.33844,282.2432,294.6032,25,0.03290122,-0.03893062,-0.04851108,0.3843811,-0.0131715,-0.07283611,-0.04039887,-0.01066359,0.001324711,0.07349997,0.02020008,-0.05832566
6,0.06,40.6833,-75.28828,108.6083,21.53,271.1804,6,10,1422118166,-0.01759338,0.1141357,-1.02829,25.07394,13.46397,-23.27023,282.2912,294.6512,25,0.0111187,-0.05181073,-0.04735021,0.3845699,-0.01369209,-0.0725654,0.02726701,-0.03488785,0.01194954,-0.01513771,-0.04932363,-0.03278502
7,0.07,40.6833,-75.28828,108.6083,21.53,271.1804,6,10,1422118166,-0.008239746,0.08494568,-1.098679,24.57859,13.6763,-23.54309,282.8963,295.2563,25,0.002625078,-0.05450079,-0.04985518,0.3846301,-0.01497022,-0.07229275,0.00883408,-0.03040679,0.01175143,-0.002662826,0.04190595,-0.03101354
8,0.08,40.6833,-75.28828,108.6083,21.53,271.1804,6,10,1422118166,0.00189209,0.07757568,-1.00177,24.57859,13.6763,-23.54309,282.8963,295.2563,25,-0.002406166,-0.04721492,-0.04996436,0.3847649,-0.01533809,-0.07225785,0.000340466,-0.03309689,0.009246337,0.007057718,0.0127507,-0.1014054
9,0.09,40.6833,-75.28828,108.6083,21.53,271.1804,6,10,1422118166,0.02862549,0.03396606,-0.9453888,24.29553,13.74707,-23.40665,283.3669,295.7269,25,0.009437976,-0.02960077,-0.04265239,0.3848633,-0.01561056,-0.07231018,-0.004690773,-0.02581107,0.009137018,0.01746123,0.005328503,-0.004504785
10,0.09999999,40.6833,-75.28828,108.6083,21.53,271.1804,6,10,1422118166,0.02793884,0.005310059,-0.9844971,24.29553,13.74707,-23.40665,283.3669,295.7269,25,0.009437976,-0.02960077,-0.04265239,0.3848633,-0.01561056,-0.07231018,-0.004690773,-0.02581107,0.009137018,0.01746123,0.005328503,-0.004504785
11,0.11,40.6833,-75.28828,108.6083,21.53,271.1804,6,10,1422118166,0.02813721,0.04942322,-1.026672,24.22476,13.60551,-23.6113,283.2426,295.6026,25,0.0255509,-0.03788213,-0.04981177,0.3851244,-0.01418504,-0.07109346,0.00715964,-0.00818906,0.01644934,0.04277422,-0.03706753,0.05198478
12,0.12,40.6833,-75.28828,108.6083,21.53,271.1804,6,10,1422118166,0.008178711,0.1360779,-1.034744,24.22476,13.60551,-23.6113,283.2426,295.6026,25,0.006233927,-0.0470522,-0.06095017,0.3852807,-0.01434022,-0.07090382,0.02327257,-0.01647047,0.009289835,0.04224254,-0.06553437,0.01288775
13,0.13,40.6833,-75.28828,108.6083,21.53,271.1804,6,10,1422118166,0.008178711,0.1360779,-1.034744,24.22476,13.60551,-23.6113,283.2426,295.6026,25,-0.02574478,-0.04162015,-0.05144242,0.3852807,-0.01434022,-0.07090382,0.02327257,-0.01647047,0.009289835,0.04224254,-0.06553437,0.01288775
14,0.14,40.6833,-75.28828,108.6083,21.53,271.1804,6,10,1422118166,0.008178711,0.1360779,-1.034744,24.47243,13.00391,-23.30435,282.1982,294.5582,25,-0.02574478,-0.04162015,-0.05144242,0.3852699,-0.0145895,-0.07076203,0.003955598,-0.02564056,-0.001848635,0.04268968,-0.02127977,-0.02928111
15,0.15,40.6833,-75.28828,108.6083,21.53,271.1804,6,10,1422118166,-0.03335571,-0.01322937,-0.9588623,24.43705,12.82697,-23.27029,281.8281,294.188,25,0.003734285,-0.04708043,-0.05359931,0.385318,-0.01479553,-0.07094698,-0.0280231,-0.02020855,0.00765899,0.02293648,0.0651904,-0.03736912
16,0.16,40.6833,-75.28828,108.6083,21.53,271.1804,6,10,1422118166,0.01347351,0.03085327,-1.061966,24.43705,12.82697,-23.27029,281.8281,294.188,25,-0.02693335,-0.04533206,-0.04650412,0.385345,-0.01666082,-0.07238787,0.001449013,-0.02567593,0.005501413,-0.07714884,-0.04931442,0.06636503
17,0.17,40.6833,-75.28828,108.6083,21.53,271.1804,6,10,1422118166,0.1019287,0.08190918,-1.07431,24.5432,12.57925,-23.23615,281.8195,294.1794,25,-0.06484105,-0.04504124,-0.04928632,0.3854601,-0.01694861,-0.07257298,-0.02921861,-0.02392761,0.01259648,-0.01645253,-0.08573867,0.03836219
18,0.18,40.6833,-75.28828,108.6083,21.53,271.1804,6,10,1422118166,0.1019287,0.08190918,-1.07431,24.5432,12.57925,-23.23615,281.8195,294.1794,25,-0.06265033,-0.03628717,-0.03706108,0.3855607,-0.01717722,-0.07330234,-0.0671263,-0.02363686,0.009814082,0.09043348,0.0158441,-0.1246129
19,0.19,40.6833,-75.28828,108.6083,21.53,271.1804,6,10,1422118166,0.04785156,0.05195618,-0.9825134,24.75549,12.65004,-23.23615,281.8105,294.1705,25,-0.06116562,-0.04251417,-0.05664996,0.3860086,-0.01366288,-0.07408035,-0.0649361,-0.01486339,0.02204044,0.1155537,0.007896572,-0.07714608
20,0.2,40.6833,-75.28828,108.6083,21.53,271.1804,6,10,1422118166,-0.03297424,0.04127502,-0.9263306,24.75549,12.65004,-23.23615,281.8105,294.1705,25,-0.04448465,-0.01864506,-0.05795438,0.3860799,-0.01386461,-0.07472311,-0.06345138,-0.02109044,0.002451423,0.06167704,-0.02269742,0.01460026
21,0.21,40.6833,-75.28828,108.6083,21.53,271.1804,6,10,1422118166,-0.084198,0.02253723,-1.011246,24.75549,12.65004,-23.23615,281.8105,294.1705,25,-0.04448465,-0.01864506,-0.05795438,0.3860799,-0.01386461,-0.07472311,-0.06345138,-0.02109044,0.002451423,0.06167704,-0.02269742,0.01460026
22,0.22,40.6833,-75.28828,108.6083,21.53,271.1804,6,10,1422118166,-0.1336212,0.03578186,-1.063278,24.75549,12.79159,-23.03156,281.8052,294.1652,25,-0.09347935,-0.01613503,-0.0559365,0.3859627,-0.01386991,-0.07611053,-0.08091053,0.003101087,-0.01511877,-0.07036868,-0.05349984,-0.01423664
23,0.23,40.6833,-75.28828,108.6083,21.53,271.1804,6,10,1422118166,-0.08222961,0.06071472,-1.018417,24.61396,13.21625,-22.75873,281.8105,294.1704,25,-0.09347935,-0.01613503,-0.0559365,0.3859627,-0.01386991,-0.07611053,-0.08091053,0.003101087,-0.01511877,-0.07036868,-0.05349984,-0.01423664
24,0.24,40.6833,-75.28828,108.6083,21.53,271.1804,6,10,1422118166,-0.02400208,0.002868652,-0.9755096,24.61396,13.21625,-22.75873,281.8105,294.1704,25,-0.01599228,-0.0389213,-0.05384139,0.3859296,-0.01379483,-0.07712762,-0.0957651,0.005288585,0.003164564,-0.1198678,-0.04126932,-0.06634592
25,0.25,40.6833,-75.28828,108.6083,21.53,271.1804,6,10,1422118166,0.03076172,0.03985596,-0.942215,24.40166,13.14546,-22.55411,281.8163,294.1763,25,-0.01599228,-0.0389213,-0.05384139,0.385955,-0.01377016,-0.07793947,-0.06633291,0.002297009,0.0009846414,-0.0685017,-0.01714586,-0.02154762
26,0.26,40.6833,-75.28828,108.6083,21.53,271.1804,6,10,1422118166,0.04841614,0.1514435,-0.970459,24.40166,13.14546,-22.55411,281.8163,294.1763,25,-0.05028634,-0.03850824,-0.04922214,0.385955,-0.01377016,-0.07793947,-0.06633291,0.002297009,0.0009846414,-0.0685017,-0.01714586,-0.02154762
27,0.27,40.6833,-75.28828,108.6083,21.53,271.1804,6,10,1422118166,0.01637268,0.08047485,-0.9275513,24.50781,13.53473,-22.24719,281.8312,294.1912,25,-0.06016667,-0.03258777,-0.05181739,0.3861073,-0.01407365,-0.07874998,-0.05257208,-0.01708477,0.009878542,0.04479129,-0.03881265,0.05458713
28,0.28,40.6833,-75.28828,108.6083,21.53,271.1804,6,10,1422118166,0.01637268,0.08047485,-0.9275513,24.50781,13.53473,-22.24719,281.8312,294.1912,25,-0.0503673,-0.03235767,-0.05419346,0.3861836,-0.01422211,-0.07943365,-0.0624524,-0.01116434,0.007283164,0.06259292,0.07209335,0.02628701
29,0.29,40.6833,-75.28828,108.6083,21.53,271.1804,6,10,1422118166,-0.007675171,0.05162048,-0.868454,24.50781,13.53473,-22.24719,281.8312,294.1912,25,-0.0503673,-0.03235767,-0.05419346,0.3861836,-0.01422211,-0.07943365,-0.0624524,-0.01116434,0.007283164,0.06259292,0.07209335,0.02628701
30,0.3,40.6833,-75.28828,108.6083,21.53,271.1804,6,10,1422118166,-0.007675171,0.05162048,-0.868454,24.50781,13.53473,-22.24719,281.8312,294.1912,25,-0.0503673,-0.03235767,-0.05419346,0.3861836,-0.01422211,-0.07943365,-0.0624524,-0.01116434,0.007283164,0.06259292,0.07209335,0.02628701
31,0.31,40.6833,-75.28828,108.6083,21.53,271.1804,6,10,1422118166,-0.06533813,0.07559204,-0.9898071,24.68472,13.78245,-22.07669,281.8644,294.2244,25,-0.0146631,-0.04261564,-0.05871098,0.386253,-0.01461061,-0.08025662,-0.00241754,-0.013425,0.0004418539,-0.01754143,-0.03620991,0.04605222
32,0.32,40.6833,-75.28828,108.6083,21.53,271.1804,6,10,1422118166,-0.05958557,0.08821106,-0.9855194,24.68472,13.78245,-22.07669,281.8644,294.2244,25,-0.01333072,-0.05119421,-0.0512496,0.3862696,-0.01484367,-0.08036759,-0.01694881,-0.02119242,0.0003889944,-0.05054292,-0.004689062,0.006855324
33,0.33,40.6833,-75.28828,108.6083,21.53,271.1804,6,10,1422118166,0.02374268,0.04798889,-0.9470367,24.89701,13.6409,-22.28134,281.8756,294.2356,25,0.01639176,-0.06900357,-0.0545205,0.3863423,-0.01513684,-0.08067077,-0.01561642,-0.02977104,0.007850247,-0.04449853,0.007627764,0.01111428
34,0.34,40.6833,-75.28828,108.6083,21.53,271.1804,6,10,1422118166,0.04702759,0.0914917,-0.9732361,24.89701,13.6409,-22.28134,281.8756,294.2356,25,0.01169767,-0.07900427,-0.05569788,0.3863991,-0.01558224,-0.08057974,0.01410605,-0.04758042,0.004579288,0.01792669,-0.008287976,0.03087492
35,0.35,40.6833,-75.28828,108.6083,21.53,271.1804,6,10,1422118166,0.02972412,0.1326447,-1.044769,24.96778,13.78244,-22.07669,281.8892,294.2492,25,0.005162538,-0.05693599,-0.05595461,0.3864441,-0.01619579,-0.08048528,0.009411973,-0.05758117,0.003401775,0.03988533,-0.03240953,0.04959534
36,0.36,40.6833,-75.28828,108.6083,21.53,271.1804,6,10,1422118166,-0.008544922,0.1123657,-1.02713,24.96778,13.78244,-22.07669,281.8892,294.2492,25,-0.007278685,-0.04734594,-0.05246188,0.3864441,-0.01619579,-0.08048528,0.009411973,-0.05758117,0.003401775,0.03988533,-0.03240953,0.04959534
37,0.37,40.6833,-75.28828,108.6083,21.53,271.1804,6,10,1422118166,-0.008544922,0.1123657,-1.02713,24.96778,13.78244,-22.07669,281.8892,294.2492,25,-0.007278685,-0.04734594,-0.05246188,0.3864441,-0.01619579,-0.08048528,0.009411973,-0.05758117,0.003401775,0.03988533,-0.03240953,0.04959534
38,0.38,40.6833,-75.28828,108.6083,21.53,271.1804,6,10,1422118166,-0.008544922,0.1123657,-1.02713,24.96778,13.78244,-22.07669,281.8892,294.2492,25,-0.007278685,-0.04734594,-0.05246188,0.3864441,-0.01619579,-0.08048528,0.009411973,-0.05758117,0.003401775,0.03988533,-0.03240953,0.04959534
39,0.39,40.6833,-75.28828,108.6083,21.53,271.1804,6,10,1422118166,-0.02774048,0.01599121,-0.9981842,24.82625,13.49934,-22.07669,281.8969,294.2569,25,0.009885387,-0.04939338,-0.05229729,0.3866015,-0.01713422,-0.08058425,-0.00603701,-0.01842645,0.00659905,0.008532858,0.03186866,-0.03052159
40,0.4,40.6833,-75.28828,108.6083,21.53,271.1804,6,10,1422118166,-0.0320282,0.06962585,-1.018646,24.9324,13.39317,-22.11078,281.8998,294.2598,25,-0.009617474,-0.05113056,-0.05736183,0.3867367,-0.01773815,-0.0805078,0.00157485,-0.03183478,0.004328385,-0.01006071,-0.06442965,-0.001580015
41,0.41,40.6833,-75.28828,108.6083,21.53,271.1804,6,10,1422118166,-0.0320282,0.06962585,-1.018646,24.9324,13.39317,-22.11078,281.8998,294.2598,25,-0.009617474,-0.05113056,-0.05736183,0.3867367,-0.01773815,-0.0805078,0.00157485,-0.03183478,0.004328385,-0.01006071,-0.06442965,-0.001580015
42,0.42,40.6833,-75.28828,108.6083,21.53,271.1804,6,10,1422118166,-0.06417847,0.06930542,-0.9590759,24.72012,13.53472,-22.24719,281.9078,294.2678,25,0.002206962,-0.03106364,-0.0537583,0.386761,-0.01807721,-0.08060374,-0.01190314,-0.02970776,0.001737001,-0.01401067,-0.01089064,-0.02205582
43,0.43,40.6833,-75.28828,108.6083,21.53,271.1804,6,10,1422118166,-0.06965637,0.07685852,-0.9230804,24.72012,13.53472,-22.24719,281.9078,294.2678,25,0.002113218,-0.02612614,-0.05380411,0.3868101,-0.01817983,-0.08069153,-7.869711E-005,-0.009640891,0.005340395,-0.04131331,0.01728114,-0.02975518
44,0.44,40.6833,-75.28828,108.6083,21.53,271.1804,6,10,1422118166,-0.001907349,0.08395386,-0.9812164,24.43705,13.39317,-22.17905,281.9166,294.2766,25,0.0007297061,-0.02239985,-0.04156342,0.3868816,-0.01824452,-0.08067455,-0.0001724354,-0.004703436,0.00529446,-0.04599429,-0.01128165,0.03750576
45,0.45,40.6833,-75.28828,108.6083,21.53,271.1804,6,10,1422118166,-0.001907349,0.08395386,-0.9812164,24.43705,13.39317,-22.17905,281.9166,294.2766,25,0.0007297061,-0.02239985,-0.04156342,0.3868816,-0.01824452,-0.08067455,-0.0001724354,-0.004703436,0.00529446,-0.04599429,-0.01128165,0.03750576
46,0.46,40.6833,-75.28828,108.6083,21.53,271.1804,6,10,1422118166,-0.001907349,0.08395386,-0.9812164,24.43705,13.39317,-22.17905,281.9166,294.2766,25,0.0007297061,-0.02239985,-0.04156342,0.3868816,-0.01824452,-0.08067455,-0.0001724354,-0.004703436,0.00529446,-0.04599429,-0.01128165,0.03750576
47,0.47,40.6833,-75.28828,108.6083,21.53,271.1804,6,10,1422118166,-0.02081299,0.03982544,-0.9774628,25.00317,13.3224,-22.31546,281.9173,294.2773,25,-0.052872,0.03183702,-0.04619945,0.3872672,-0.01762517,-0.08087666,-0.001598504,0.0002712907,0.01998076,0.0156593,0.003165337,0.01536002
48,0.48,40.6833,-75.28828,108.6083,21.53,271.1804,6,10,1422118166,-0.05084229,-0.01062012,-0.9862366,25.357,13.53473,-22.52002,281.918,294.278,25,-0.03084979,0.03114966,-0.04477733,0.387509,-0.01705034,-0.08193855,-0.05515866,0.05326304,0.01289889,0.01365063,0.002518952,0.03913311
49,0.49,40.6833,-75.28828,108.6083,21.53,271.1804,6,10,1422118166,-0.08465576,0.04130554,-0.9483185,25.357,13.53473,-22.52002,281.918,294.278,25,-0.03084979,0.03114966,-0.04477733,0.387509,-0.01705034,-0.08193855,-0.05515866,0.05326304,0.01289889,0.01365063,0.002518952,0.03913311
50,0.5,40.6833,-75.28828,108.6083,21.53,271.1804,6,10,1422118166,-0.04582214,0.05976868,-0.9790039,25.28624,13.25163,-22.52002,281.9129,294.2729,25,-0.06656624,0.04629719,-0.05136226,0.3876898,-0.01642068,-0.08236792,-0.03313644,0.05257563,0.01432089,-0.00444871,-0.04244937,0.01901255
51,0.51,40.6833,-75.28828,108.6083,21.53,271.1804,6,10,1422118166,-0.09309387,0.04566956,-0.973465,25.28624,13.25163,-22.52002,281.9129,294.2729,25,-0.0653308,0.04754036,-0.05627766,0.3876536,-0.01710144,-0.07947507,-0.06883299,0.06771563,0.007735466,-0.06760914,-0.03808589,0.04837927
52,0.52,40.6833,-75.28828,108.6083,21.53,271.1804,6,10,1422118166,-0.06817627,0.05331421,-0.9066925,25.357,12.82697,-22.24719,281.899,294.259,25,-0.06694122,0.06604719,-0.05154548,0.3876594,-0.01638032,-0.08018701,-0.06759755,0.06895874,0.00281994,-0.02949518,-0.02033243,0.01764911
53,0.53,40.6833,-75.28828,108.6083,21.53,271.1804,6,10,1422118166,-0.06817627,0.05331421,-0.9066925,25.357,12.82697,-22.24719,281.899,294.259,25,-0.02018996,0.05237293,-0.05225202,0.3876594,-0.01638032,-0.08018701,-0.06759755,0.06895874,0.00281994,-0.02949518,-0.02033243,0.01764911
54,0.54,40.6833,-75.28828,108.6083,21.53,271.1804,6,10,1422118166,-0.06817627,0.05331421,-0.9066925,25.357,12.82697,-22.24719,281.899,294.259,25,-0.02018996,0.05237293,-0.05225202,0.3876594,-0.01638032,-0.08018701,-0.06759755,0.06895874,0.00281994,-0.02949518,-0.02033243,0.01764911
55,0.55,40.6833,-75.28828,108.6083,21.53,271.1804,6,10,1422118166,-0.06817627,0.05331421,-0.9066925,25.357,12.82697,-22.24719,281.899,294.259,25,-0.02018996,0.05237293,-0.05225202,0.3876594,-0.01638032,-0.08018701,-0.06759755,0.06895874,0.00281994,-0.02949518,-0.02033243,0.01764911
56,0.56,40.6833,-75.28828,108.6083,21.53,271.1804,6,10,1422118166,-0.01464844,0.0846405,-1.037216,25.85236,12.4023,-22.52002,281.8708,294.2308,25,-0.06013391,0.02917173,-0.04992282,0.3877036,-0.01555147,-0.08066905,-0.00861862,0.05435426,0.005910503,-0.02989462,-0.003936682,0.03730742
57,0.57,40.6833,-75.28828,108.6083,21.53,271.1804,6,10,1422118166,0.003662109,0.06481934,-1.040619,25.53391,12.57925,-22.62238,281.8497,294.2097,25,-0.02695439,0.02256203,-0.05326642,0.3877891,-0.01500049,-0.08122692,-0.06239583,0.05057732,0.009173543,-0.01828318,0.03583626,-0.01975139
58,0.58,40.6833,-75.28828,108.6083,21.53,271.1804,6,10,1422118166,0.02471924,0.04753113,-1.013153,25.53391,12.57925,-22.62238,281.8497,294.2097,25,0.001621066,-0.0002042645,-0.05404459,0.3877891,-0.01500049,-0.08122692,-0.06239583,0.05057732,0.009173543,-0.01828318,0.03583626,-0.01975139
59,0.59,40.6833,-75.28828,108.6083,21.53,271.1804,6,10,1422118166,0.0357666,0.07809448,-0.9828796,25.357,12.54386,-22.86108,281.8299,294.1899,25,0.007898403,-0.008694422,-0.05391383,0.3879129,-0.01410248,-0.08174767,-0.0006408809,0.02120141,0.005051523,0.01771703,-0.01683731,-0.04405748
60,0.6,40.6833,-75.28828,108.6083,21.53,271.1804,6,10,1422118166,0.03158569,0.1038361,-1.087585,25.357,12.54386,-22.86108,281.8299,294.1899,25,-0.002111887,0.002184857,-0.05164082,0.3879564,-0.01396162,-0.08170035,0.005636461,0.01271121,0.005182157,0.03863383,-0.03407837,-0.01658583
61,0.61,40.6833,-75.28828,108.6083,21.53,271.1804,6,10,1422118166,0.03158569,0.1038361,-1.087585,25.357,12.4023,-23.54312,281.8053,294.1653,25,-0.002111887,0.002184857,-0.05164082,0.3879564,-0.01396162,-0.08170035,0.005636461,0.01271121,0.005182157,0.03863383,-0.03407837,-0.01658583
62,0.62,40.6833,-75.28828,108.6083,21.53,271.1804,6,10,1422118166,0.03158569,0.1038361,-1.087585,25.357,12.4023,-23.54312,281.8053,294.1653,25,-0.002111887,0.002184857,-0.05164082,0.3879564,-0.01396162,-0.08170035,0.005636461,0.01271121,0.005182157,0.03863383,-0.03407837,-0.01658583
63,0.63,40.6833,-75.28828,108.6083,21.53,271.1804,6,10,1422118166,-0.06910706,0.0458374,-0.9434967,25.78159,12.6854,-23.81598,281.7836,294.1436,25,0.02127733,-0.004660266,-0.05383687,0.3882194,-0.01185149,-0.08236624,-0.006818276,0.02475751,0.003738086,0.009003416,0.04350506,-0.07667184
64,0.64,40.6833,-75.28828,108.6083,21.53,271.1804,6,10,1422118166,-0.09963989,0.06547546,-0.9465179,25.78159,12.6854,-23.81598,281.7836,294.1436,25,0.03293958,-0.03529141,-0.06328762,0.3882512,-0.01170273,-0.08223267,0.01901253,0.01675413,0.005259154,-0.02988676,0.01246447,0.01313886
65,0.65,40.6833,-75.28828,108.6083,21.53,271.1804,6,10,1422118166,-0.06126404,0.1118469,-1.071869,25.67545,13.07468,-24.05469,281.7704,294.1304,25,0.02175882,-0.0281347,-0.05853335,0.3882356,-0.01176029,-0.08188892,0.03067478,-0.01387706,-0.00419173,-0.05738645,-0.03596003,0.05308335
66,0.66,40.6833,-75.28828,108.6083,21.53,271.1804,6,10,1422118166,0.006744385,0.09378052,-1.109085,25.67545,13.07468,-24.05469,281.7704,294.1304,25,0.03494973,-0.02032818,-0.04252003,0.3879391,-0.01529364,-0.08117458,0.01949679,-0.006739786,0.000561346,-0.0843972,-0.01561,0.05007265
67,0.67,40.6833,-75.28828,108.6083,21.53,271.1804,6,10,1422118166,0.05041504,0.1198273,-0.995575,25.85236,12.96851,-24.70261,281.7529,294.1129,25,0.05111485,-0.03230201,-0.04718802,0.3879391,-0.01529364,-0.08117458,0.01949679,-0.006739786,0.000561346,-0.0843972,-0.01561,0.05007265
68,0.68,40.6833,-75.28828,108.6083,21.53,271.1804,6,10,1422118166,0.09967041,0.1091156,-0.8991089,25.85236,12.96851,-24.70261,281.7529,294.1129,25,0.06849677,-0.04912467,-0.0382864,0.3882328,-0.01539295,-0.08041447,0.04885282,-0.01090717,0.01190649,0.02208698,0.01345268,-0.1124347
69,0.69,40.6833,-75.28828,108.6083,21.53,271.1804,6,10,1422118166,0.03227234,0.08636475,-1.016861,25.99389,12.89773,-24.83902,281.7332,294.0932,25,0.06849677,-0.04912467,-0.0382864,0.3882328,-0.01539295,-0.08041447,0.04885282,-0.01090717,0.01190649,0.02208698,0.01345268,-0.1124347
70,0.7,40.6833,-75.28828,108.6083,21.53,271.1804,6,10,1422118166,0.03227234,0.08636475,-1.016861,25.99389,12.89773,-24.83902,281.7332,294.0932,25,0.06849677,-0.04912467,-0.0382864,0.3882328,-0.01539295,-0.08041447,0.04885282,-0.01090717,0.01190649,0.02208698,0.01345268,-0.1124347
71,0.71,40.6833,-75.28828,108.6083,21.53,271.1804,6,10,1422118166,0.03227234,0.08636475,-1.016861,25.99389,12.89773,-24.83902,281.7332,294.0932,25,0.06849677,-0.04912467,-0.0382864,0.3882328,-0.01539295,-0.08041447,0.04885282,-0.01090717,0.01190649,0.02208698,0.01345268,-0.1124347
72,0.72,40.6833,-75.28828,108.6083,21.53,271.1804,6,10,1422118166,-0.1354523,0.04156494,-0.9885406,26.1708,12.86235,-24.8049,281.7117,294.0717,25,0.02138758,-0.0071663,-0.06241358,0.3888977,-0.01388728,-0.07857358,0.02508048,0.01936355,0.005285317,-0.1009021,0.02253569,-0.07386015
73,0.73,40.6833,-75.28828,108.6083,21.53,271.1804,6,10,1422118166,-0.07983398,0.02110291,-0.9601898,26.24157,12.57925,-24.94131,281.6846,294.0446,25,0.03993091,-0.02026106,-0.05476471,0.3888968,-0.01368682,-0.07839402,0.01912433,0.01423826,-0.003319219,-0.1218079,-0.0367488,0.008294738
74,0.74,40.6833,-75.28828,108.6083,21.53,271.1804,6,10,1422118166,-0.02070618,-0.01300049,-1.078766,26.24157,12.57925,-24.94131,281.6846,294.0446,25,0.03420697,-0.04139058,-0.05339212,0.3889249,-0.01366686,-0.07801232,0.03770366,0.001096975,0.00520307,-0.06620912,-0.05683032,0.03667565
75,0.75,40.6833,-75.28828,108.6083,21.53,271.1804,6,10,1422118166,0.01776123,0.09057617,-1.075928,25.99389,12.82696,-24.83902,281.6641,294.0241,25,0.01173362,-0.022129,-0.04147234,0.3890012,-0.01378318,-0.07762235,0.03197973,-0.02003259,0.006575531,-0.006964933,-0.09054492,-0.08187167
76,0.76,40.6833,-75.28828,108.6083,21.53,271.1804,6,10,1422118166,0.05403137,0.1305389,-1.087097,25.99389,12.82696,-24.83902,281.6641,294.0241,25,0.01173362,-0.022129,-0.04147234,0.3890012,-0.01378318,-0.07762235,0.03197973,-0.02003259,0.006575531,-0.006964933,-0.09054492,-0.08187167
77,0.77,40.6833,-75.28828,108.6083,21.53,271.1804,6,10,1422118166,0.05403137,0.1305389,-1.087097,25.99389,12.82696,-24.83902,281.6641,294.0241,25,-0.0004492753,-0.02001445,-0.05388161,0.3890012,-0.01378318,-0.07762235,0.03197973,-0.02003259,0.006575531,-0.006964933,-0.09054492,-0.08187167
78,0.78,40.6833,-75.28828,108.6083,21.53,271.1804,6,10,1422118166,0.05403137,0.1305389,-1.087097,25.99389,12.82696,-24.83902,281.6641,294.0241,25,-0.0004492753,-0.02001445,-0.05388161,0.3890012,-0.01378318,-0.07762235,0.03197973,-0.02003259,0.006575531,-0.006964933,-0.09054492,-0.08187167
79,0.79,40.6833,-75.28828,108.6083,21.53,271.1804,6,10,1422118166,0.05403137,0.1305389,-1.087097,25.99389,12.82696,-24.83902,281.6641,294.0241,25,-0.0004492753,-0.02001445,-0.05388161,0.3890012,-0.01378318,-0.07762235,0.03197973,-0.02003259,0.006575531,-0.006964933,-0.09054492,-0.08187167
80,0.8,40.6833,-75.28828,108.6083,21.53,271.1804,6,10,1422118166,-0.04696655,0.0476532,-1.079163,26.13542,12.54385,-24.22513,281.6154,293.9754,25,-0.05605635,0.01193283,-0.06078878,0.3893486,-0.01360683,-0.07751843,-0.003204877,0.0272866,0.0107593,0.05509997,-0.009630755,-0.02372522
81,0.81,40.6833,-75.28828,108.6083,21.53,271.1804,6,10,1422118166,-0.08164978,0.05627441,-1.071686,26.13542,12.6854,-23.74771,281.5943,293.9543,25,-0.05887344,0.0267384,-0.04866128,0.389334,-0.01310721,-0.07795525,-0.05828356,0.03329061,-0.0008217143,0.007344987,-0.06559299,0.02507563
82,0.82,40.6833,-75.28828,108.6083,21.53,271.1804,6,10,1422118166,-0.1024628,0.001922607,-1.012985,26.13542,12.6854,-23.74771,281.5943,293.9543,25,-0.0586966,0.01931085,-0.05350664,0.3894085,-0.01264107,-0.0786299,-0.06110065,0.04809612,0.01130559,-0.06904811,-0.02227449,-0.07485518
83,0.83,40.6833,-75.28828,108.6083,21.53,271.1804,6,10,1422118166,-0.03691101,0.02191162,-0.9177399,25.74621,12.93312,-23.91824,281.5825,293.9425,25,-0.07405905,-0.005805159,-0.06200878,0.3894085,-0.01264107,-0.0786299,-0.06110065,0.04809612,0.01130559,-0.06904811,-0.02227449,-0.07485518
84,0.84,40.6833,-75.28828,108.6083,21.53,271.1804,6,10,1422118166,0.01889038,0.04942322,-0.9988708,25.74621,12.93312,-23.91824,281.5825,293.9425,25,-0.00210443,0.00462165,-0.05903482,0.3895062,-0.01189431,-0.08000781,-0.07628625,0.01555246,-0.002042164,-0.02505503,-0.05801085,0.07899071
85,0.85,40.6833,-75.28828,108.6083,21.53,271.1804,6,10,1422118166,0.03846741,0.118927,-1.086395,25.74621,12.93312,-23.91824,281.5825,293.9425,25,-0.00210443,0.00462165,-0.05903482,0.3895062,-0.01189431,-0.08000781,-0.07628625,0.01555246,-0.002042164,-0.02505503,-0.05801085,0.07899071
86,0.86,40.6833,-75.28828,108.6083,21.53,271.1804,6,10,1422118166,0.03846741,0.118927,-1.086395,25.74621,12.93312,-23.91824,281.5825,293.9425,25,-0.00210443,0.00462165,-0.05903482,0.3895062,-0.01189431,-0.08000781,-0.07628625,0.01555246,-0.002042164,-0.02505503,-0.05801085,0.07899071
87,0.87,40.6833,-75.28828,108.6083,21.53,271.1804,6,10,1422118166,0.01194763,-0.01507568,-0.9698792,25.64006,12.89773,-23.6113,281.5491,293.9091,25,-0.02494556,-0.01692918,-0.05780391,0.3895523,-0.01177046,-0.08158664,-0.07003979,0.005859749,0.005470757,0.03017891,0.07322796,-0.02198059
88,0.88,40.6833,-75.28828,108.6083,21.53,271.1804,6,10,1422118166,0.0136261,0.04499817,-0.9902954,25.64006,12.89773,-23.6113,281.5491,293.9091,25,-0.002483398,-0.03984595,-0.05863269,0.3896022,-0.01167522,-0.08203502,-0.02717275,0.004428275,0.002162246,0.01302425,-0.006442553,-0.00193555
89,0.89,40.6833,-75.28828,108.6083,21.53,271.1804,6,10,1422118166,0.04585266,0.115036,-1.085358,25.10932,12.79156,-23.57721,281.5403,293.9003,25,-0.0268918,-0.04657709,-0.0489497,0.3896014,-0.01181643,-0.08212682,-0.00471058,-0.01848854,0.00133334,0.02372396,-0.09711021,0.02668076
90,0.9,40.6833,-75.28828,108.6083,21.53,271.1804,6,10,1422118166,0.04585266,0.115036,-1.085358,25.10932,12.79156,-23.57721,281.5403,293.9003,25,-0.0268918,-0.04657709,-0.0489497,0.3896014,-0.01181643,-0.08212682,-0.00471058,-0.01848854,0.00133334,0.02372396,-0.09711021,0.02668076
91,0.91,40.6833,-75.28828,108.6083,21.53,271.1804,6,10,1422118166,0.0007629395,0.1193237,-1.064789,24.57858,12.96851,-23.54312,281.5399,293.8999,25,-0.0453254,-0.04209099,-0.04914731,0.3896014,-0.01181643,-0.08212682,-0.00471058,-0.01848854,0.00133334,0.02372396,-0.09711021,0.02668076
92,0.92,40.6833,-75.28828,108.6083,21.53,271.1804,6,10,1422118166,-0.02697754,0.04632568,-0.9991455,24.57858,12.96851,-23.54312,281.5399,293.8999,25,-0.01113042,-0.03634283,-0.05628085,0.3897969,-0.01233672,-0.08289251,-0.04755257,-0.02073367,0.01081846,0.05814672,0.03223839,-0.08886712
93,0.93,40.6833,-75.28828,108.6083,21.53,271.1804,6,10,1422118166,-0.04081726,0.04167175,-1.015762,24.57858,12.96851,-23.54312,281.5399,293.8999,25,-0.01113042,-0.03634283,-0.05628085,0.3897969,-0.01233672,-0.08289251,-0.04755257,-0.02073367,0.01081846,0.05814672,0.03223839,-0.08886712
94,0.94,40.6833,-75.28828,108.6083,21.53,271.1804,6,10,1422118166,-0.03012085,0.111145,-1.042877,24.7555,12.79156,-23.168,281.5344,293.8943,25,-0.002824282,-0.02377777,-0.05386749,0.3898362,-0.01262891,-0.08334835,-0.0475792,-0.01461518,-0.001524285,-0.02823252,-0.04158013,-0.01931326
95,0.95,40.6833,-75.28828,108.6083,21.53,271.1804,6,10,1422118166,-0.01264954,0.07980347,-1.04155,24.7555,12.65001,-23.23621,281.5251,293.8851,25,0.02692696,-0.04404522,-0.05465845,0.3898635,-0.01267909,-0.08364782,-0.005051438,-0.00242061,0.00609782,-0.01748643,0.02759471,-0.04645373
96,0.96,40.6833,-75.28828,108.6083,21.53,271.1804,6,10,1422118166,0.004180908,0.09332275,-0.9283905,24.7555,12.65001,-23.23621,281.5251,293.8851,25,0.04053118,-0.05234949,-0.05323846,0.389916,-0.01288217,-0.08345448,0.0246998,-0.02268811,0.005306732,0.0001874449,-0.003554175,-0.04511267
97,0.97,40.6833,-75.28828,108.6083,21.53,271.1804,6,10,1422118166,0.006942749,0.1164398,-0.9321136,24.64935,12.11919,-23.20212,281.5057,293.8657,25,0.03905073,-0.03880146,-0.05337454,0.3900004,-0.01317789,-0.08306118,0.03830403,-0.03099242,0.006726597,0.01731298,0.01035705,0.06807537
98,0.98,40.6833,-75.28828,108.6083,21.53,271.1804,6,10,1422118166,0.0003356934,0.1085815,-1.082474,24.64935,12.11919,-23.20212,281.5057,293.8657,25,-0.0004386226,-0.0224619,-0.04894464,0.3900603,-0.0134127,-0.08254933,0.03682359,-0.01744444,0.006590383,0.02030937,0.03398422,0.06439145
99,0.9899999,40.6833,-75.28828,108.6083,21.53,271.1804,6,10,1422118166,-0.02210999,0.07478333,-1.05307,25.03856,11.94225,-23.09985,281.4799,293.8398,25,0.04703036,-0.01139726,-0.04495602,0.3900603,-0.0134127,-0.08254933,0.03682359,-0.01744444,0.006590383,0.02030937,0.03398422,0.06439145
100,1,40.6833,-75.28828,108.6083,21.53,271.1804,6,10,1422118166,-0.04060364,0.08309937,-0.9826355,25.03856,11.94225,-23.09985,281.4799,293.8398,25,0.01034745,-0.007415839,-0.05759059,0.3903777,-0.01283957,-0.08291181,0.04479905,0.009962947,0.01500893,0.01313081,0.02576469,-0.08599111
101,1.01,40.6833,-75.28828,108.6083,21.53,271.1804,6,10,1422118166,-0.04060364,0.08309937,-0.9826355,25.03856,11.94225,-23.09985,281.4799,293.8398,25,0.01034745,-0.007415839,-0.05759059,0.3903777,-0.01283957,-0.08291181,0.04479905,0.009962947,0.01500893,0.01313081,0.02576469,-0.08599111
102,1.02,40.6833,-75.28828,108.6083,21.53,271.1804,6,10,1422118166,-0.04060364,0.08309937,-0.9826355,25.03856,11.94225,-23.09985,281.4799,293.8398,25,0.01034745,-0.007415839,-0.05759059,0.3903777,-0.01283957,-0.08291181,0.04479905,0.009962947,0.01500893,0.01313081,0.02576469,-0.08599111
103,1.03,40.6833,-75.28828,108.6083,21.53,271.1804,6,10,1422118166,-0.07093811,0.06495667,-0.9736176,25.07394,11.7653,-23.20212,281.4504,293.8104,25,0.01909726,-0.01586179,-0.06112514,0.3904757,-0.01225398,-0.0824247,0.03928684,0.0468258,0.003568003,-0.02839157,0.0007679596,0.01389468
104,1.04,40.6833,-75.28851,107.2106,20.85,272.2026,6,5,1422118167,-0.0534668,0.0740509,-1.076111,24.7555,11.37603,-23.09979,281.416,293.7759,25,0.02995843,-0.01184521,-0.05124028,0.3903567,-0.01439556,-0.07937846,0.03029436,0.0058379,0.003863844,-0.05816003,-0.06081673,-0.09056289
105,1.05,40.6833,-75.28851,107.2106,20.85,272.2026,6,5,1422118167,-0.0534668,0.0740509,-1.076111,24.82626,11.80068,-22.96338,281.3906,293.7506,25,0.02995843,-0.01184521,-0.05124028,0.3903567,-0.01439556,-0.07937846,0.03029436,0.0058379,0.003863844,-0.05816003,-0.06081673,-0.09056289
106,1.06,40.6833,-75.28851,107.2106,20.85,272.2026,6,5,1422118167,-0.01899719,0.05130005,-0.9612885,24.82626,11.80068,-22.96338,281.3906,293.7506,25,0.02094922,0.01262099,-0.05399719,0.3903479,-0.01433553,-0.07914247,0.01688135,0.005485518,-0.001161672,-0.05664794,-0.01410321,0.02314989
107,1.07,40.6833,-75.28851,107.2106,20.85,272.2026,6,5,1422118167,0.005142212,0.0696106,-1.020493,24.82626,11.80068,-22.96338,281.3906,293.7506,25,0.02508431,-0.009534117,-0.05990328,0.3905286,-0.01393075,-0.07864674,0.01873332,0.0339682,0.00596602,-0.06680124,-0.03899965,-0.04402031
108,1.08,40.6833,-75.28851,107.2106,20.85,272.2026,6,5,1422118167,0.03813171,0.0566864,-1.100998,25.18009,11.94225,-22.89517,281.367,293.727,25,0.01693504,0.02982261,-0.05173084,0.3905337,-0.01398055,-0.07732096,0.02287431,0.01181169,5.963241E-005,-0.00505887,-0.02594389,0.03562634
109,1.09,40.6833,-75.28851,107.2106,20.85,272.2026,6,5,1422118167,0.03813171,0.0566864,-1.100998,25.18009,11.94225,-22.89517,281.367,293.727,25,0.01693504,0.02982261,-0.05173084,0.3905337,-0.01398055,-0.07732096,0.02287431,0.01181169,5.963241E-005,-0.00505887,-0.02594389,0.03562634
110,1.1,40.6833,-75.28851,107.2106,20.85,272.2026,6,5,1422118167,0.03813171,0.0566864,-1.100998,25.18009,11.94225,-22.89517,281.367,293.727,25,0.01693504,0.02982261,-0.05173084,0.3905337,-0.01398055,-0.07732096,0.02287431,0.01181169,5.963241E-005,-0.00505887,-0.02594389,0.03562634
111,1.11,40.6833,-75.28851,107.2106,20.85,272.2026,6,5,1422118167,-0.001235962,0.02415466,-0.993454,25.1447,11.83608,-22.92926,281.342,293.702,25,0.003900732,0.01093867,-0.06027,0.390767,-0.01313287,-0.07726011,-0.04569728,0.01506915,0.0006752993,0.03891119,0.02369259,-0.09788717
112,1.12,40.6833,-75.28851,107.2106,20.85,272.2026,6,5,1422118167,-0.07365417,-0.01799011,-0.9702454,25.78159,11.41142,-22.99747,281.3041,293.6641,25,0.0103043,-0.003728692,-0.0613105,0.390767,-0.01313287,-0.07726011,-0.04569728,0.01506915,0.0006752993,0.03891119,0.02369259,-0.09788717
113,1.13,40.6833,-75.28851,107.2106,20.85,272.2026,6,5,1422118167,-0.1025238,0.03507996,-0.9992981,26.02927,11.37604,-24.25922,281.2613,293.6212,25,-0.01943415,0.01775183,-0.06544505,0.3908168,-0.01188445,-0.07854789,0.008087395,0.01762055,-0.00134787,0.01061157,-0.05431248,0.003392319
114,1.14,40.6833,-75.28851,107.2106,20.85,272.2026,6,5,1422118167,-0.07771301,0.1051025,-1.120926,26.02927,11.37604,-24.25922,281.2613,293.6212,25,-0.01943415,0.01775183,-0.06544505,0.3908168,-0.01188445,-0.07854789,0.008087395,0.01762055,-0.00134787,0.01061157,-0.05431248,0.003392319
115,1.15,40.6833,-75.28851,107.2106,20.85,272.2026,6,5,1422118167,-0.05429077,0.0528717,-1.055069,26.02927,11.37604,-24.25922,281.2613,293.6212,25,-0.06112381,0.01924001,-0.05598391,0.3907568,-0.01144247,-0.07865629,-0.02165105,0.03910101,-0.005482619,-0.09111696,-0.04349526,-0.002455169
116,1.16,40.6833,-75.28851,107.2106,20.85,272.2026,6,5,1422118167,0.006668091,0.02085876,-0.9586029,26.1708,10.66827,-24.66846,281.2027,293.5627,25,-0.06112381,0.01924001,-0.05598391,0.3907568,-0.01144247,-0.07865629,-0.02165105,0.03910101,-0.005482619,-0.09111696,-0.04349526,-0.002455169
117,1.17,40.6833,-75.28851,107.2106,20.85,272.2026,6,5,1422118167,0.006668091,0.02085876,-0.9586029,26.1708,10.66827,-24.66846,281.2027,293.5627,25,-0.06112381,0.01924001,-0.05598391,0.3907422,-0.01101873,-0.07884465,-0.02051148,0.04162111,-0.0005814705,-0.06672874,0.02633955,-0.124093
118,1.18,40.6833,-75.28851,107.2106,20.85,272.2026,6,5,1422118167,0.006668091,0.02085876,-0.9586029,26.1708,10.66827,-24.66846,281.2027,293.5627,25,-0.06112381,0.01924001,-0.05598391,0.3907422,-0.01101873,-0.07884465,-0.02051148,0.04162111,-0.0005814705,-0.06672874,0.02633955,-0.124093
119,1.19,40.6833,-75.28851,107.2106,20.85,272.2026,6,5,1422118167,0.006668091,0.02085876,-0.9586029,26.1708,10.66827,-24.66846,281.2027,293.5627,25,-0.06112381,0.01924001,-0.05598391,0.3907422,-0.01101873,-0.07884465,-0.02051148,0.04162111,-0.0005814705,-0.06672874,0.02633955,-0.124093
120,1.2,40.6833,-75.28851,107.2106,20.85,272.2026,6,5,1422118167,-0.08279419,0.04608154,-0.8730469,26.27694,10.13744,-25.17993,281.1322,293.4922,25,-0.002570217,-0.01782427,-0.1042939,0.3899305,-0.01171093,-0.07956974,0.0003691349,0.002262896,-0.07622224,0.001572287,-0.001131922,0.06480658
121,1.21,40.6833,-75.28851,107.2106,20.85,272.2026,6,5,1422118167,-0.08279419,0.04608154,-0.8730469,26.13541,9.642006,-25.93021,281.0511,293.4111,25,-0.002570217,-0.01782427,-0.1042939,0.3899305,-0.01171093,-0.07956974,0.0003691349,0.002262896,-0.07622224,0.001572287,-0.001131922,0.06480658
122,1.22,40.6833,-75.28851,107.2106,20.85,272.2026,6,5,1422118167,-0.06968689,0.05497742,-0.8959656,25.99389,9.712784,-26.13483,280.9726,293.3326,25,0.002186189,-0.02006612,-0.07966021,0.3894425,-0.01175096,-0.07958189,-0.004780349,0.003515335,-0.04433287,-0.07108069,-0.03341637,0.1237193
123,1.23,40.6833,-75.28851,107.2106,20.85,272.2026,6,5,1422118167,-0.05697632,0.02703857,-1.021042,25.99389,9.712784,-26.13483,280.9726,293.3326,25,-0.02006985,-0.02168239,-0.04297543,0.3890671,-0.01172189,-0.0796172,-2.39382E-005,0.001273439,-0.0196993,-0.0580024,-0.0245557,0.1007982
124,1.24,40.6833,-75.28851,107.2106,20.85,272.2026,6,5,1422118167,0.06802368,0.08108521,-1.010681,25.85236,9.85434,-25.862,280.9002,293.2602,25,-0.02466859,-0.03906272,-0.03794152,0.3890375,-0.01351284,-0.07760273,-0.02226755,-0.0003530848,0.01698457,-0.04350455,-0.05048629,-0.02414247
125,1.25,40.6833,-75.28851,107.2106,20.85,272.2026,6,5,1422118167,0.06802368,0.08108521,-1.010681,25.85236,9.85434,-25.862,280.9002,293.2602,25,-0.05334498,-0.07069228,-0.04895476,0.3890375,-0.01351284,-0.07760273,-0.02226755,-0.0003530848,0.01698457,-0.04350455,-0.05048629,-0.02414247
126,1.26,40.6833,-75.28851,107.2106,20.85,272.2026,6,5,1422118167,0.06802368,0.08108521,-1.010681,25.85236,9.85434,-25.862,280.9002,293.2602,25,-0.05334498,-0.07069228,-0.04895476,0.3890375,-0.01351284,-0.07760273,-0.02226755,-0.0003530848,0.01698457,-0.04350455,-0.05048629,-0.02414247
127,1.27,40.6833,-75.28851,107.2106,20.85,272.2026,6,5,1422118167,0.06802368,0.08108521,-1.010681,25.85236,9.85434,-25.862,280.9002,293.2602,25,-0.05334498,-0.07069228,-0.04895476,0.3890375,-0.01351284,-0.07760273,-0.02226755,-0.0003530848,0.01698457,-0.04350455,-0.05048629,-0.02414247
128,1.28,40.6833,-75.28851,107.2106,20.85,272.2026,6,5,1422118167,-0.05133057,0.1018982,-1.012955,25.21547,10.13744,-26.47583,280.7728,293.1328,25,-0.07317062,-0.05637193,-0.05171113,0.3897362,-0.0128462,-0.07725058,-0.04585714,-0.04172518,0.006103277,0.04871147,-0.03930146,0.06564572
129,1.29,40.6833,-75.28851,107.2106,20.85,272.2026,6,5,1422118167,-0.01670837,0.02978516,-1.036469,25.21547,10.13744,-26.47583,280.7728,293.1328,25,-0.06440482,-0.06848904,-0.04784023,0.3898295,-0.01319701,-0.07801566,-0.07535963,-0.03503057,0.00824859,-0.02807276,-0.03409804,-0.02473494
130,1.3,40.6833,-75.28851,107.2106,20.85,272.2026,6,5,1422118167,0.03210449,-0.02336121,-0.9418793,25.14471,10.70364,-26.47583,280.725,293.085,25,-0.09879795,-0.06191477,-0.04573527,0.3899302,-0.01362702,-0.07876615,-0.06659383,-0.04714773,0.01211936,-0.03774621,0.02321346,-0.01614772
131,1.31,40.6833,-75.28851,107.2106,20.85,272.2026,6,5,1422118167,0.06784058,0.01066589,-0.9019775,25.14471,10.70364,-26.47583,280.725,293.085,25,-0.05808594,-0.07822423,-0.05015505,0.3902454,-0.012234,-0.07571153,-0.1009633,-0.04056248,0.01422414,0.04430314,-0.09900042,0.05518136
132,1.32,40.6833,-75.28851,107.2106,20.85,272.2026,6,5,1422118167,0.03675842,0.03134155,-1.04361,24.9678,10.80981,-26.64633,280.6814,293.0414,25,-0.06598061,-0.04756139,-0.0541876,0.3902454,-0.012234,-0.07571153,-0.1009633,-0.04056248,0.01422414,0.04430314,-0.09900042,0.05518136
133,1.33,40.6833,-75.28851,107.2106,20.85,272.2026,6,5,1422118167,0.03675842,0.03134155,-1.04361,24.9678,10.80981,-26.64633,280.6814,293.0414,25,-0.06598061,-0.04756139,-0.0541876,0.3902454,-0.012234,-0.07571153,-0.1009633,-0.04056248,0.01422414,0.04430314,-0.09900042,0.05518136
134,1.34,40.6833,-75.28851,107.2106,20.85,272.2026,6,5,1422118167,0.03675842,0.03134155,-1.04361,24.9678,10.80981,-26.64633,280.6814,293.0414,25,-0.06598061,-0.04756139,-0.0541876,0.3902454,-0.012234,-0.07571153,-0.1009633,-0.04056248,0.01422414,0.04430314,-0.09900042,0.05518136
135,1.35,40.6833,-75.28851,107.2106,20.85,272.2026,6,5,1422118167,-0.1264954,0.0642395,-0.9743652,24.7555,10.80981,-26.85092,280.6411,293.0011,25,-0.05991979,0.01317812,-0.03748878,0.3904077,-0.01324713,-0.07907904,-0.08814629,-0.0008008673,-0.002002219,-0.1092312,0.03272821,0.03627716
136,1.36,40.6833,-75.28851,107.2106,20.85,272.2026,6,5,1422118167,-0.09425354,-0.009887695,-0.8519592,24.72012,11.1283,-26.68042,280.6077,292.9677,25,-0.05991979,0.01317812,-0.03748878,0.3904077,-0.01324713,-0.07907904,-0.08814629,-0.0008008673,-0.002002219,-0.1092312,0.03272821,0.03627716
137,1.37,40.6833,-75.28851,107.2106,20.85,272.2026,6,5,1422118167,0.001235962,-0.002822876,-0.966217,24.72012,11.1283,-26.68042,280.6077,292.9677,25,0.04033837,-0.04125077,-0.05579855,0.3904915,-0.01307509,-0.08005245,-0.06208513,0.0345302,0.02247004,-0.1134625,-0.01572747,0.02234708
138,1.38,40.6833,-75.28851,107.2106,20.85,272.2026,6,5,1422118167,0.01509094,0.1652832,-0.9503021,24.61397,11.58835,-26.37347,280.5829,292.9429,25,0.03647253,0.0339806,-0.05774586,0.3906188,-0.01294602,-0.07965413,0.03817303,-0.01989873,0.004160144,-0.08134893,-0.08945762,0.1447865
139,1.39,40.6833,-75.28851,107.2106,20.85,272.2026,6,5,1422118167,0.06825256,0.1593781,-1.095856,24.61397,11.58835,-26.37347,280.5829,292.9429,25,-0.09646981,-0.0556827,-0.04577228,0.3906422,-0.01266878,-0.07967416,0.03430719,0.05533259,0.002212708,0.01386422,-0.08241277,0.03053066
140,1.4,40.6833,-75.28851,107.2106,20.85,272.2026,6,5,1422118167,-0.03187561,-0.1080322,-0.8312225,24.79088,12.11917,-26.203,280.5684,292.9284,25,0.005034972,0.01468254,-0.0578372,0.3907354,-0.01288332,-0.08007708,-0.09863514,-0.03433076,0.01418615,0.02793262,0.08529168,0.0464107
141,1.41,40.6833,-75.28851,107.2106,20.85,272.2026,6,5,1422118167,-0.03187561,-0.1080322,-0.8312225,24.79088,12.11917,-26.203,280.5684,292.9284,25,0.005034972,0.01468254,-0.0578372,0.3907354,-0.01288332,-0.08007708,-0.09863514,-0.03433076,0.01418615,0.02793262,0.08529168,0.0464107
142,1.42,40.6833,-75.28851,107.2106,20.85,272.2026,6,5,1422118167,-0.03187561,-0.1080322,-0.8312225,24.79088,12.11917,-26.203,280.5684,292.9284,25,0.005034972,0.01468254,-0.0578372,0.3907354,-0.01288332,-0.08007708,-0.09863514,-0.03433076,0.01418615,0.02793262,0.08529168,0.0464107
143,1.43,40.6833,-75.28851,107.2106,20.85,272.2026,6,5,1422118167,-0.04933167,0.1614227,-1.034851,24.9678,12.64999,-26.44168,280.5635,292.9235,25,0.009175389,-0.008696286,-0.06127481,0.3907709,-0.01267316,-0.08048146,0.01238753,-0.01192224,-0.003504223,0.02267208,-0.1635398,0.09444613
144,1.44,40.6833,-75.28851,107.2106,20.85,272.2026,6,5,1422118167,-0.06335449,0.1066589,-1.163589,25.25085,13.07465,-26.16891,280.5628,292.9228,25,-0.0760969,-0.02685505,-0.06306285,0.3906085,-0.01198358,-0.08056007,0.007010086,0.01265545,-0.001316959,-0.03738723,0.08094978,-0.03816585
145,1.45,40.6833,-75.28851,107.2106,20.85,272.2026,6,5,1422118167,0.005599976,6.103516E-005,-0.9165497,25.25085,13.07465,-26.16891,280.5628,292.9228,25,0.003274623,-0.02239825,-0.05505686,0.3905819,-0.01206078,-0.08122183,-0.07826219,-0.00550336,-0.003105135,-0.05133376,0.02552638,-0.1669586
146,1.46,40.6833,-75.28851,107.2106,20.85,272.2026,6,5,1422118167,0.06495667,-0.02185059,-0.8851318,25.14471,13.53469,-26.33939,280.5724,292.9324,25,0.003354518,-0.02000407,-0.07227899,0.3906082,-0.01205832,-0.08154811,0.001109329,-0.001046607,0.00490073,0.01761793,-0.08139672,0.08005466
147,1.47,40.6833,-75.28851,107.2106,20.85,272.2026,6,5,1422118167,0.01382446,0.01002502,-1.066284,25.14471,13.53469,-26.33939,280.5724,292.9324,25,0.003354518,-0.02000407,-0.07227899,0.3906082,-0.01205832,-0.08154811,0.001109329,-0.001046607,0.00490073,0.01761793,-0.08139672,0.08005466
148,1.48,40.6833,-75.28851,107.2106,20.85,272.2026,6,5,1422118167,0.0002441406,0.1568909,-1.135803,25.14471,13.53469,-26.68045,280.5809,292.9409,25,0.03020983,-0.01565486,-0.07577626,0.3905643,-0.01207023,-0.08139575,0.001189226,0.001347553,-0.01232147,0.07698665,-0.1031565,0.1114848
149,1.49,40.6833,-75.28851,107.2106,20.85,272.2026,6,5,1422118167,0.0002441406,0.1568909,-1.135803,25.14471,13.53469,-26.68045,280.5809,292.9409,25,-0.05648911,-0.02640018,-0.06904352,0.3905643,-0.01207023,-0.08139575,0.001189226,0.001347553,-0.01232147,0.07698665,-0.1031565,0.1114848
150,1.5,40.6833,-75.28851,107.2106,20.85,272.2026,6,5,1422118167,0.0002441406,0.1568909,-1.135803,25.14471,13.53469,-26.68045,280.5809,292.9409,25,-0.05648911,-0.02640018,-0.06904352,0.3905643,-0.01207023,-0.08139575,0.001189226,0.001347553,-0.01232147,0.07698665,-0.1031565,0.1114848
151,1.51,40.6833,-75.28851,107.2106,20.85,272.2026,6,5,1422118167,0.0002441406,0.1568909,-1.135803,25.14471,13.53469,-26.68045,280.5809,292.9409,25,-0.05648911,-0.02640018,-0.06904352,0.3905643,-0.01207023,-0.08139575,0.001189226,0.001347553,-0.01232147,0.07698665,-0.1031565,0.1114848
152,1.52,40.6833,-75.28851,107.2106,20.85,272.2026,6,5,1422118167,-0.005157471,0.01364136,-0.9485626,24.82626,12.86232,-26.78275,280.5782,292.9382,25,0.02763616,-0.01319836,-0.06476275,0.3901468,-0.01202278,-0.0817845,0.004811943,0.00146428,-0.006149047,-0.08106579,-0.07255334,0.1426273
153,1.53,40.6833,-75.28851,107.2106,20.85,272.2026,6,5,1422118167,0.0428772,0.1474609,-1.098389,24.18938,12.36688,-26.57812,280.571,292.931,25,0.02461906,-0.04662742,-0.06694095,0.3900895,-0.01186009,-0.08155573,0.02547089,0.008153006,-0.004805939,0.006662921,-0.06782399,0.04804346
154,1.54,40.6833,-75.28851,107.2106,20.85,272.2026,6,5,1422118167,-0.007354736,0.1420288,-1.061539,24.18938,12.36688,-26.57812,280.571,292.931,25,0.008124239,-0.01493021,-0.06859877,0.3900895,-0.01186009,-0.08155573,0.02547089,0.008153006,-0.004805939,0.006662921,-0.06782399,0.04804346
155,1.55,40.6833,-75.28851,107.2106,20.85,272.2026,6,5,1422118167,-0.02737427,0.05761719,-0.9433746,23.97709,11.87145,-26.30533,280.5558,292.9158,25,-0.01590333,-0.03653245,-0.07229204,0.390044,-0.01204174,-0.08122783,0.0224538,-0.02527611,-0.006984269,0.05487895,0.0663224,-0.1017581
156,1.56,40.6833,-75.28851,107.2106,20.85,272.2026,6,5,1422118167,-0.1261444,-0.04550171,-0.9597931,23.97709,11.87145,-26.30533,280.5558,292.9158,25,0.01766049,0.0001017328,-0.07356929,0.389836,-0.01221914,-0.08130902,-0.01806859,-0.01518122,-0.01233562,-0.0151958,-0.02360227,0.0532472
157,1.57,40.6833,-75.28851,107.2106,20.85,272.2026,6,5,1422118167,-0.1261444,-0.04550171,-0.9597931,23.97709,11.87145,-26.30533,280.5558,292.9158,25,0.01766049,0.0001017328,-0.07356929,0.389836,-0.01221914,-0.08130902,-0.01806859,-0.01518122,-0.01233562,-0.0151958,-0.02360227,0.0532472
158,1.58,40.6833,-75.28851,107.2106,20.85,272.2026,6,5,1422118167,-0.1261444,-0.04550171,-0.9597931,23.97709,11.87145,-26.30533,280.5558,292.9158,25,0.01766049,0.0001017328,-0.07356929,0.389836,-0.01221914,-0.08130902,-0.01806859,-0.01518122,-0.01233562,-0.0151958,-0.02360227,0.0532472
159,1.59,40.6833,-75.28851,107.2106,20.85,272.2026,6,5,1422118167,-0.09417725,-0.04577637,-0.9328003,24.154,10.70364,-24.90707,280.4893,292.8493,25,0.01766049,0.0001017328,-0.07356929,0.389836,-0.01221914,-0.08130902,-0.01806859,-0.01518122,-0.01233562,-0.0151958,-0.02360227,0.0532472
160,1.6,40.6833,-75.28851,107.2106,20.85,272.2026,6,5,1422118167,0.04251099,0.1394958,-1.13559,24.154,10.70364,-24.90707,280.4893,292.8493,25,-0.000180296,-0.02993739,-0.06484664,0.3896069,-0.01217696,-0.08066721,0.001347474,-0.01217254,0.001316621,-0.02024209,0.08107186,-0.0591729
161,1.61,40.6833,-75.28851,107.2106,20.85,272.2026,6,5,1422118167,-0.0823822,0.009841919,-1.068665,24.33091,10.59747,-24.25916,280.4475,292.8075,25,-0.000180296,-0.02993739,-0.06484664,0.3896069,-0.01217696,-0.08066721,0.001347474,-0.01217254,0.001316621,-0.02024209,0.08107186,-0.0591729
162,1.62,40.6833,-75.28851,107.2106,20.85,272.2026,6,5,1422118167,-0.03042603,-0.05270386,-0.920166,24.33091,10.59747,-24.25916,280.4475,292.8075,25,0.0180296,-0.02452718,-0.05982658,0.3895741,-0.01230563,-0.08067849,-0.002345527,-0.008586373,-0.004890807,0.05477628,0.05890486,-0.1389178
163,1.63,40.6833,-75.28851,107.2106,20.85,272.2026,6,5,1422118167,-0.1062164,0.01324463,-0.9689484,24.5432,10.66825,-23.64532,280.4086,292.7686,25,-0.02633387,-0.005876531,-0.06405967,0.389562,-0.01236406,-0.08062521,0.01586437,-0.003176208,0.0001291228,-0.07005862,-0.07069597,-0.07198919
164,1.64,40.6833,-75.28851,107.2106,20.85,272.2026,6,5,1422118167,-0.07369995,0.03761292,-1.061859,24.5432,10.66825,-23.64532,280.4086,292.7686,25,0.02221343,0.01140605,-0.05643265,0.3895386,-0.01232069,-0.08074595,-0.02849909,0.01547437,-0.004104164,-0.09393619,-0.06741361,0.0277178
165,1.65,40.6833,-75.28851,107.2106,20.85,272.2026,6,5,1422118167,-0.07369995,0.03761292,-1.061859,24.5432,10.66825,-23.64532,280.4086,292.7686,25,0.02221343,0.01140605,-0.05643265,0.3895386,-0.01232069,-0.08074595,-0.02849909,0.01547437,-0.004104164,-0.09393619,-0.06741361,0.0277178
166,1.66,40.6833,-75.28851,107.2106,20.85,272.2026,6,5,1422118167,-0.07369995,0.03761292,-1.061859,24.5432,10.66825,-23.64532,280.4086,292.7686,25,0.02221343,0.01140605,-0.05643265,0.3895386,-0.01232069,-0.08074595,-0.02849909,0.01547437,-0.004104164,-0.09393619,-0.06741361,0.0277178
167,1.67,40.6833,-75.28851,107.2106,20.85,272.2026,6,5,1422118167,-0.03356934,0.07577515,-1.191956,24.5432,10.66825,-23.03149,280.3713,292.7313,25,0.0006870956,-0.01261007,-0.06131129,0.3895386,-0.01232069,-0.08074595,-0.02849909,0.01547437,-0.004104164,-0.09393619,-0.06741361,0.0277178
168,1.68,40.6833,-75.28851,107.2106,20.85,272.2026,6,5,1422118167,-0.0980072,0.007415771,-1.013229,24.40167,10.45592,-22.89508,280.3343,292.6942,25,0.01060364,-0.01855185,-0.06363011,0.3893819,-0.01141167,-0.08074495,-0.04915801,0.008785391,-0.005447986,0.005728495,0.01593089,-0.02846949
169,1.69,40.6833,-75.28851,107.2106,20.85,272.2026,6,5,1422118167,-0.06413269,-0.02061462,-0.9299622,23.97708,10.73902,-22.69043,280.3078,292.6678,25,0.03420697,-0.04139058,-0.05339212,0.3893316,-0.01129657,-0.08084675,0.008438445,0.002798848,-0.003675185,-0.08674777,-0.07334293,-0.01655929
170,1.7,40.6833,-75.28851,107.2106,20.85,272.2026,6,5,1422118167,-0.04266357,0.03471375,-0.9882355,23.97708,10.73902,-22.69043,280.3078,292.6678,25,-0.03737933,-0.004902347,-0.06170518,0.3893664,-0.01149129,-0.08051337,0.03204178,-0.02003993,0.006562677,-0.05267888,-0.101041,0.06673258
171,1.71,40.6833,-75.28851,107.2106,20.85,272.2026,6,5,1422118167,-0.0118866,0.09048462,-0.9255371,23.97708,10.95135,-22.55402,280.2863,292.6463,25,0.02645291,-0.018134,-0.05735597,0.3893676,-0.01145546,-0.08075369,-0.03954452,0.01644826,-0.001750509,-0.03124569,-0.04595221,0.008440319
172,1.72,40.6833,-75.28851,107.2106,20.85,272.2026,6,5,1422118167,0.01850891,0.09953308,-1.063919,23.97708,10.95135,-22.55402,280.2863,292.6463,25,0.01446815,-0.02834189,-0.06473665,0.389389,-0.01128749,-0.08058604,0.02428773,0.00321656,0.00259857,-0.0006359735,0.009985778,0.0711541
173,1.73,40.6833,-75.28851,107.2106,20.85,272.2026,6,5,1422118167,-0.01618958,-0.01223755,-1.133087,23.97708,10.95135,-22.55402,280.2863,292.6463,25,0.01446815,-0.02834189,-0.06473665,0.389389,-0.01128749,-0.08058604,0.02428773,0.00321656,0.00259857,-0.0006359735,0.009985778,0.0711541
174,1.74,40.6833,-75.28851,107.2106,20.85,272.2026,6,5,1422118167,-0.01618958,-0.01223755,-1.133087,23.97708,10.95135,-22.55402,280.2863,292.6463,25,0.01446815,-0.02834189,-0.06473665,0.389389,-0.01128749,-0.08058604,0.02428773,0.00321656,0.00259857,-0.0006359735,0.009985778,0.0711541
175,1.75,40.6833,-75.28851,107.2106,20.85,272.2026,6,5,1422118167,-0.01618958,-0.01223755,-1.133087,23.97708,10.95135,-22.55402,280.2863,292.6463,25,0.01446815,-0.02834189,-0.06473665,0.389389,-0.01128749,-0.08058604,0.02428773,0.00321656,0.00259857,-0.0006359735,0.009985778,0.0711541
176,1.76,40.6833,-75.28851,107.2106,20.85,272.2026,6,5,1422118167,-0.08784485,0.02574158,-0.9897003,24.04784,10.80979,-22.14481,280.2369,292.5969,25,0.01059086,-0.01976492,-0.05870459,0.389282,-0.01138594,-0.08025977,0.02317534,0.0006803155,-0.005988583,0.00341447,-0.02627958,0.05137328
177,1.77,40.6833,-75.28851,107.2106,20.85,272.2026,6,5,1422118167,-0.03659058,0.06587219,-1.005234,24.04784,10.80979,-22.14481,280.2369,292.5969,25,0.009588179,-0.03090971,-0.05984017,0.3893211,-0.01146923,-0.08004318,0.008385908,0.001526615,0.001309902,-0.07641259,-0.05421616,0.007032377
178,1.78,40.6833,-75.28851,107.2106,20.85,272.2026,6,5,1422118167,-0.02627563,0.01527405,-0.9907684,23.9417,10.98674,-21.63327,280.2204,292.5804,25,0.01144067,0.003675695,-0.06874018,0.3892668,-0.012772,-0.07916889,0.007387384,-0.009625299,0.0001738839,-0.02385893,-0.01321403,-0.00844729
179,1.79,40.6833,-75.28851,107.2106,20.85,272.2026,6,5,1422118167,-0.03096008,0.04429626,-0.991806,23.9417,10.98674,-21.63327,280.2204,292.5804,25,0.012968,-0.01234109,-0.06858119,0.3891736,-0.01262364,-0.0791052,0.009239884,0.02496006,-0.008726262,-0.01369181,-0.06374867,0.006024955
180,1.8,40.6833,-75.28851,107.2106,20.85,272.2026,6,5,1422118167,-0.0340271,0.03416443,-1.080612,24.18938,10.95135,-21.53091,280.2015,292.5615,25,-0.001923868,-0.00158751,-0.06757718,0.3890896,-0.01250515,-0.07892846,0.01076721,0.008943257,-0.00856734,-0.01849419,-0.03455027,0.005002791
181,1.81,40.6833,-75.28851,107.2106,20.85,272.2026,6,5,1422118167,-0.07272339,0.05432129,-1.095856,24.18938,10.95135,-21.53091,280.2015,292.5615,25,-0.001923868,-0.00158751,-0.06757718,0.3890896,-0.01250515,-0.07892846,0.01076721,0.008943257,-0.00856734,-0.01849419,-0.03455027,0.005002791
182,1.82,40.6833,-75.28851,107.2106,20.85,272.2026,6,5,1422118167,-0.07272339,0.05432129,-1.095856,24.18938,10.95135,-21.53091,280.2015,292.5615,25,-0.001923868,-0.00158751,-0.06757718,0.3890896,-0.01250515,-0.07892846,0.01076721,0.008943257,-0.00856734,-0.01849419,-0.03455027,0.005002791
183,1.83,40.6833,-75.28851,107.2106,20.85,272.2026,6,5,1422118167,-0.04400635,0.01060486,-0.9355011,23.44636,11.41141,-21.01935,280.1902,292.5502,25,0.01559867,-0.02581642,-0.05860686,0.3889214,-0.01491977,-0.07769246,-0.01991406,0.009468786,0.004680826,-0.02788092,-0.02675678,-0.06526129
184,1.84,40.6833,-75.28851,107.2106,20.85,272.2026,6,5,1422118167,-0.03627014,0.04641724,-1.123459,23.44636,11.41141,-21.01935,280.1902,292.5502,25,0.009118398,0.002322543,-0.08226265,0.388939,-0.01489314,-0.07750915,0.01340609,-0.004547209,0.001405804,-0.02915847,-0.06682671,0.061386
185,1.85,40.6833,-75.28851,107.2106,20.85,272.2026,6,5,1422118167,-0.03627014,0.04641724,-1.123459,23.44636,11.41141,-21.01935,280.1902,292.5502,25,0.01250833,0.01234109,-0.07003874,0.388786,-0.01476972,-0.07744346,0.006925824,0.02359168,-0.02225018,-0.02154522,-0.03094883,-0.1265648
186,1.86,40.6833,-75.28851,107.2106,20.85,272.2026,6,5,1422118167,-0.05401611,0.06317139,-1.06749,23.02177,11.55296,-21.08755,280.1976,292.5576,25,0.01250833,0.01234109,-0.07003874,0.388786,-0.01476972,-0.07744346,0.006925824,0.02359168,-0.02225018,-0.02154522,-0.03094883,-0.1265648
187,1.87,40.6833,-75.28851,107.2106,20.85,272.2026,6,5,1422118167,-0.08197021,0.009719849,-0.9875031,23.02177,11.55296,-21.08755,280.1976,292.5576,25,-0.01558029,0.01040923,-0.07148857,0.388786,-0.01476972,-0.07744346,0.006925824,0.02359168,-0.02225018,-0.02154522,-0.03094883,-0.1265648
188,1.88,40.6833,-75.28851,107.2106,20.85,272.2026,6,5,1422118167,0.005905151,0.02029419,-0.9514313,23.1633,11.62374,-21.15576,280.2051,292.5651,25,-0.0005195827,-0.01631133,-0.05391596,0.3884676,-0.01609951,-0.07648779,0.0103208,0.03360036,-0.01002685,-0.03796437,-0.01324184,-0.0705426
189,1.89,40.6833,-75.28851,107.2106,20.85,272.2026,6,5,1422118167,0.005905151,0.02029419,-0.9514313,23.1633,11.62374,-21.15576,280.2051,292.5651,25,-0.0005195827,-0.01631133,-0.05391596,0.3883689,-0.01582229,-0.07660491,-0.01776782,0.03166845,-0.01147681,-0.07490776,-0.03308823,-0.1052456
190,1.9,40.6833,-75.28851,107.2106,20.85,272.2026,6,5,1422118167,0.005905151,0.02029419,-0.9514313,23.1633,11.62374,-21.15576,280.2051,292.5651,25,-0.0005195827,-0.01631133,-0.05391596,0.3883689,-0.01582229,-0.07660491,-0.01776782,0.03166845,-0.01147681,-0.07490776,-0.03308823,-0.1052456
191,1.91,40.6833,-75.28851,107.2106,20.85,272.2026,6,5,1422118167,0.005905151,0.02029419,-0.9514313,23.1633,11.62374,-21.15576,280.2051,292.5651,25,-0.0005195827,-0.01631133,-0.05391596,0.3883689,-0.01582229,-0.07660491,-0.01776782,0.03166845,-0.01147681,-0.07490776,-0.03308823,-0.1052456
192,1.92,40.6833,-75.28851,107.2106,20.85,272.2026,6,5,1422118167,-0.1179657,0.02259827,-1.026947,22.80947,12.11919,-21.63321,280.2444,292.6044,25,-0.03555933,0.03092276,-0.06938813,0.3884225,-0.0142936,-0.07395354,0.004508989,0.021081,-0.01733478,0.03470082,0.008053547,-0.01093761
193,1.93,40.6833,-75.28851,107.2106,20.85,272.2026,6,5,1422118167,-0.1286469,-0.06408691,-0.9503021,22.80947,12.11919,-21.63321,280.2444,292.6044,25,0.008481103,-0.03466956,-0.06595851,0.3882714,-0.01377668,-0.07423326,-0.03773407,0.05218881,-0.009377117,-0.05054697,0.07485223,-0.1029768
194,1.94,40.6833,-75.28851,107.2106,20.85,272.2026,6,5,1422118167,-0.04592896,-0.03520203,-0.8347321,22.88024,12.11919,-21.70139,280.2654,292.6254,25,-0.00102079,0.009615876,-0.05292793,0.3882057,-0.01373988,-0.07418085,0.006306367,-0.01340356,-0.005947626,-0.104264,-0.05151457,-0.02979129
195,1.95,40.6833,-75.28851,107.2106,20.85,272.2026,6,5,1422118167,0.08937073,0.04862976,-0.9022827,22.88024,12.11919,-21.70139,280.2654,292.6254,25,0.01422794,-0.02087705,-0.05129168,0.3882417,-0.01353168,-0.0742861,-0.003195521,0.03088183,0.007082822,-0.1151529,-0.1383047,0.04684863
196,1.96,40.6833,-75.28851,107.2106,20.85,272.2026,6,5,1422118167,0.02522278,0.07736206,-1.086288,23.05716,11.94225,-21.87192,280.2803,292.6403,25,-0.0004977448,-0.01510359,-0.06007,0.388337,-0.01346774,-0.07419093,0.01205321,0.0003888337,0.008718875,0.102801,-0.02549313,0.09487596
197,1.97,40.6833,-75.28851,107.2106,20.85,272.2026,6,5,1422118167,0.02522278,0.07736206,-1.086288,23.05716,11.94225,-21.87192,280.2803,292.6403,25,-0.0004977448,-0.01510359,-0.06007,0.388337,-0.01346774,-0.07419093,0.01205321,0.0003888337,0.008718875,0.102801,-0.02549313,0.09487596
198,1.98,40.6833,-75.28851,107.2106,20.85,272.2026,6,5,1422118167,0.02522278,0.07736206,-1.086288,23.05716,11.94225,-21.87192,280.2803,292.6403,25,-0.0004977448,-0.01510359,-0.06007,0.388337,-0.01346774,-0.07419093,0.01205321,0.0003888337,0.008718875,0.102801,-0.02549313,0.09487596
199,1.99,40.6833,-75.28851,107.2106,20.85,272.2026,6,5,1422118167,-0.1598511,-0.03504944,-0.8930969,22.88024,12.18996,-21.97421,280.3038,292.6638,25,-0.06171476,-0.005573464,-0.07787829,0.3883792,-0.01164245,-0.07412793,-0.006297554,0.0109394,-0.01856337,0.04669017,0.01820984,-0.0642762
200,2,40.6833,-75.28851,107.2106,20.85,272.2026,6,5,1422118167,-0.1357727,-0.06434631,-0.8822021,22.7741,12.22535,-21.87192,280.3291,292.6891,25,0.006980412,-0.02477139,-0.05377508,0.3880196,-0.01111888,-0.0748563,-0.0007579038,0.03705959,-0.007696874,-0.1487636,-0.1098358,0.104041
201,2.01,40.6833,-75.28851,107.2106,20.85,272.2026,6,5,1422118167,-0.02302551,0.01586914,-1.056152,22.7741,12.22535,-21.87192,280.3291,292.6891,25,0.006980412,-0.02477139,-0.05377508,0.3880196,-0.01111888,-0.0748563,-0.0007579038,0.03705959,-0.007696874,-0.1487636,-0.1098358,0.104041
202,2.02,40.6833,-75.28851,107.2106,20.85,272.2026,6,5,1422118167,0.04943848,0.1333923,-1.039062,22.88024,12.54384,-22.17883,280.359,292.719,25,-0.05427336,-0.0213226,-0.05064134,0.388068,-0.01105164,-0.07475355,0.004806507,-0.003495845,0.006235125,-0.1247522,-0.1390302,0.1149442
203,2.03,40.6833,-75.28851,107.2106,20.85,272.2026,6,5,1422118167,0.1081848,0.1016388,-1.024933,22.88024,12.54384,-22.17883,280.359,292.719,25,-0.05886998,-0.03504241,-0.05546992,0.3881465,-0.01106218,-0.07519317,-0.05644726,-0.000047097,0.009368735,-0.01199482,-0.0592532,-0.05903903
204,2.04,40.6833,-75.28851,107.2106,20.85,272.2026,6,5,1422118167,0.007949829,-0.04013062,-0.9662476,22.63256,12.86233,-22.41754,280.3977,292.7577,25,-0.05666221,-0.01775423,-0.06789516,0.3881965,-0.01117864,-0.07576946,-0.06104387,-0.01376695,0.004540029,0.06058481,0.05769535,-0.04199393
205,2.05,40.6833,-75.28851,107.2106,20.85,272.2026,6,5,1422118167,0.007949829,-0.04013062,-0.9662476,22.63256,12.86233,-22.41754,280.3977,292.7577,25,0.003242665,-0.01505592,-0.06986777,0.3881965,-0.01117864,-0.07576946,-0.06104387,-0.01376695,0.004540029,0.06058481,0.05769535,-0.04199393
206,2.06,40.68331,-75.28874,108.8555,20.9,273.5324,8,10,1422118168,-0.1321259,0.04734802,-1.006485,22.49104,12.86233,-22.75854,280.4373,292.7972,25,-0.005359611,-0.01768206,-0.05763054,0.3879225,-0.01090211,-0.07703262,-0.05934795,0.03189572,-0.0118346,-0.149897,-0.04810209,-7.985031E-005
207,2.07,40.68331,-75.28874,108.8555,20.9,273.5324,8,10,1422118168,-0.1321259,0.04734802,-1.006485,22.49104,12.86233,-22.75854,280.4373,292.7972,25,-0.005359611,-0.01768206,-0.05763054,0.3879225,-0.01090211,-0.07703262,-0.05934795,0.03189572,-0.0118346,-0.149897,-0.04810209,-7.985031E-005
208,2.08,40.68331,-75.28874,108.8555,20.9,273.5324,8,10,1422118168,-0.04295349,0.05258179,-1.056641,22.42027,12.57923,-22.9632,280.4704,292.8304,25,-0.0770639,-0.04412379,-0.05308452,0.3879225,-0.01090211,-0.07703262,-0.05934795,0.03189572,-0.0118346,-0.149897,-0.04810209,-7.985031E-005
